{
"type": "FeatureCollection",
"features": [
{ "type": "Feature", "properties": { "Station": "Apperley Bridge", "Points": 200.0, "full_name": "Apperley Bridge Rail station, UK" }, "geometry": { "type": "Point", "coordinates": [ -1.706448, 53.8418758 ] } },
{ "type": "Feature", "properties": { "Station": "Baildon", "Points": 200.0, "full_name": "Baildon Rail station, UK" }, "geometry": { "type": "Point", "coordinates": [ -1.7537447, 53.8503258 ] } },
{ "type": "Feature", "properties": { "Station": "Batley", "Points": 200.0, "full_name": "Batley Rail station, UK" }, "geometry": { "type": "Point", "coordinates": [ -1.6231687, 53.7099448 ] } },
{ "type": "Feature", "properties": { "Station": "Berry Brow", "Points": 400.0, "full_name": "Berry Brow Rail station, UK" }, "geometry": { "type": "Point", "coordinates": [ -1.793494, 53.621074099999987 ] } },
{ "type": "Feature", "properties": { "Station": "Brockholes", "Points": 400.0, "full_name": "Brockholes Rail station, UK" }, "geometry": { "type": "Point", "coordinates": [ -1.7698075, 53.596989699999988 ] } },
{ "type": "Feature", "properties": { "Station": "Bingley", "Points": 200.0, "full_name": "Bingley Rail station, UK" }, "geometry": { "type": "Point", "coordinates": [ -1.8373666, 53.8486483 ] } },
{ "type": "Feature", "properties": { "Station": "Ben Rhydding", "Points": 200.0, "full_name": "Ben Rhydding Rail station, UK" }, "geometry": { "type": "Point", "coordinates": [ -1.7975162, 53.9256712 ] } },
{ "type": "Feature", "properties": { "Station": "Bradford Forster Square", "Points": 200.0, "full_name": "Bradford Forster Square Rail station, UK" }, "geometry": { "type": "Point", "coordinates": [ -1.7529805, 53.7969186 ] } },
{ "type": "Feature", "properties": { "Station": "Bradford Interchange", "Points": 200.0, "full_name": "Bradford Interchange Rail station, UK" }, "geometry": { "type": "Point", "coordinates": [ -1.7497655, 53.7912616 ] } },
{ "type": "Feature", "properties": { "Station": "Brighouse", "Points": 400.0, "full_name": "Brighouse Rail station, UK" }, "geometry": { "type": "Point", "coordinates": [ -1.7602287, 53.6988251 ] } },
{ "type": "Feature", "properties": { "Station": "Burley Park", "Points": 200.0, "full_name": "Burley Park Rail station, UK" }, "geometry": { "type": "Point", "coordinates": [ -1.5777552, 53.8121242 ] } },
{ "type": "Feature", "properties": { "Station": "Bramley", "Points": 200.0, "full_name": "Bramley Rail station, yorkshire, UK" }, "geometry": { "type": "Point", "coordinates": [ -1.6362568, 53.805066399999987 ] } },
{ "type": "Feature", "properties": { "Station": "Burley-in-Wharfedale", "Points": 200.0, "full_name": "Burley-in-Wharfedale Rail station, UK" }, "geometry": { "type": "Point", "coordinates": [ -1.7532057, 53.9080936 ] } },
{ "type": "Feature", "properties": { "Station": "Castleford", "Points": 200.0, "full_name": "Castleford Rail station, UK" }, "geometry": { "type": "Point", "coordinates": [ -1.35456, 53.724356099999987 ] } },
{ "type": "Feature", "properties": { "Station": "Crossflatts", "Points": 200.0, "full_name": "Crossflatts Rail station, UK" }, "geometry": { "type": "Point", "coordinates": [ -1.8444558, 53.8583851 ] } },
{ "type": "Feature", "properties": { "Station": "Cottingley", "Points": 200.0, "full_name": "Cottingley Rail station, UK" }, "geometry": { "type": "Point", "coordinates": [ -1.5875569, 53.7679097 ] } },
{ "type": "Feature", "properties": { "Station": "Cross Gates", "Points": 200.0, "full_name": "Cross Gates Rail station, UK" }, "geometry": { "type": "Point", "coordinates": [ -1.4515826, 53.8046814 ] } },
{ "type": "Feature", "properties": { "Station": "Deighton", "Points": 200.0, "full_name": "Deighton Rail station, UK" }, "geometry": { "type": "Point", "coordinates": [ -1.7524299, 53.668367800000013 ] } },
{ "type": "Feature", "properties": { "Station": "Denby Dale", "Points": 1000.0, "full_name": "Denby Dale Rail station, UK" }, "geometry": { "type": "Point", "coordinates": [ -1.6629507, 53.572563 ] } },
{ "type": "Feature", "properties": { "Station": "Darton", "Points": 1000.0, "full_name": "Darton Rail station, UK" }, "geometry": { "type": "Point", "coordinates": [ -1.5315437, 53.5883531 ] } },
{ "type": "Feature", "properties": { "Station": "Dewsbury", "Points": 200.0, "full_name": "Dewsbury Rail station, UK" }, "geometry": { "type": "Point", "coordinates": [ -1.6328075, 53.6920496 ] } },
{ "type": "Feature", "properties": { "Station": "East Garforth", "Points": 200.0, "full_name": "East Garforth Rail station, UK" }, "geometry": { "type": "Point", "coordinates": [ -1.3824164, 53.7965053 ] } },
{ "type": "Feature", "properties": { "Station": "Fitzwilliam", "Points": 200.0, "full_name": "Fitzwilliam Rail station, UK" }, "geometry": { "type": "Point", "coordinates": [ -1.3744348, 53.6325917 ] } },
{ "type": "Feature", "properties": { "Station": "Frizinghall", "Points": 200.0, "full_name": "Frizinghall Rail station, UK" }, "geometry": { "type": "Point", "coordinates": [ -1.7694587, 53.8208238 ] } },
{ "type": "Feature", "properties": { "Station": "Featherstone", "Points": 400.0, "full_name": "Featherstone Rail station, UK" }, "geometry": { "type": "Point", "coordinates": [ -1.3591077, 53.678868599999987 ] } },
{ "type": "Feature", "properties": { "Station": "Garforth", "Points": 200.0, "full_name": "Garforth Rail station, UK" }, "geometry": { "type": "Point", "coordinates": [ -1.3824164, 53.7965053 ] } },
{ "type": "Feature", "properties": { "Station": "Glasshoughton", "Points": 200.0, "full_name": "Glasshoughton Rail station, UK" }, "geometry": { "type": "Point", "coordinates": [ -1.35456, 53.724356099999987 ] } },
{ "type": "Feature", "properties": { "Station": "Guiseley", "Points": 200.0, "full_name": "Guiseley Rail station, UK" }, "geometry": { "type": "Point", "coordinates": [ -1.7150773, 53.8758538 ] } },
{ "type": "Feature", "properties": { "Station": "Hebden Bridge", "Points": 400.0, "full_name": "Hebden Bridge Rail station, UK" }, "geometry": { "type": "Point", "coordinates": [ -2.0087542, 53.7377298 ] } },
{ "type": "Feature", "properties": { "Station": "Huddersfield", "Points": 200.0, "full_name": "Huddersfield Rail station, UK" }, "geometry": { "type": "Point", "coordinates": [ -1.7844541, 53.648410899999988 ] } },
{ "type": "Feature", "properties": { "Station": "Headingley", "Points": 200.0, "full_name": "Headingley Rail station, UK" }, "geometry": { "type": "Point", "coordinates": [ -1.5943036, 53.8179198 ] } },
{ "type": "Feature", "properties": { "Station": "Halifax", "Points": 400.0, "full_name": "Halifax Rail station, UK" }, "geometry": { "type": "Point", "coordinates": [ -1.8538542, 53.721045399999987 ] } },
{ "type": "Feature", "properties": { "Station": "Honley", "Points": 400.0, "full_name": "Honley Rail station, UK" }, "geometry": { "type": "Point", "coordinates": [ -1.7808868, 53.6081028 ] } },
{ "type": "Feature", "properties": { "Station": "Horsforth", "Points": 200.0, "full_name": "Horsforth Rail station, UK" }, "geometry": { "type": "Point", "coordinates": [ -1.6300348, 53.8476386 ] } },
{ "type": "Feature", "properties": { "Station": "Ilkley", "Points": 200.0, "full_name": "Ilkley Rail station, UK" }, "geometry": { "type": "Point", "coordinates": [ -1.8222249, 53.9249078 ] } },
{ "type": "Feature", "properties": { "Station": "Keighley", "Points": 200.0, "full_name": "Keighley Rail station, UK" }, "geometry": { "type": "Point", "coordinates": [ -1.9016783, 53.8680342 ] } },
{ "type": "Feature", "properties": { "Station": "Kirkstall Forge", "Points": 200.0, "full_name": "Kirkstall Forge Rail station, UK" }, "geometry": { "type": "Point", "coordinates": [ -1.6269826, 53.8253953 ] } },
{ "type": "Feature", "properties": { "Station": "Knottingley", "Points": 400.0, "full_name": "Knottingley Rail station, UK" }, "geometry": { "type": "Point", "coordinates": [ -1.25918, 53.70655 ] } },
{ "type": "Feature", "properties": { "Station": "Leeds", "Points": 0.0, "full_name": "Leeds Rail station, UK" }, "geometry": { "type": "Point", "coordinates": [ -1.5473693, 53.794964099999987 ] } },
{ "type": "Feature", "properties": { "Station": "Lockwood", "Points": 200.0, "full_name": "Lockwood Rail station, UK" }, "geometry": { "type": "Point", "coordinates": [ -1.8008688, 53.634634299999988 ] } },
{ "type": "Feature", "properties": { "Station": "Low Moor", "Points": 200.0, "full_name": "Low Moor Rail station, UK" }, "geometry": { "type": "Point", "coordinates": [ -1.7516866, 53.7503106 ] } },
{ "type": "Feature", "properties": { "Station": "Micklefield", "Points": 400.0, "full_name": "Micklefield Rail station, UK" }, "geometry": { "type": "Point", "coordinates": [ -1.3267594, 53.788887499999987 ] } },
{ "type": "Feature", "properties": { "Station": "Menston", "Points": 200.0, "full_name": "Menston Rail station, UK" }, "geometry": { "type": "Point", "coordinates": [ -1.7355603, 53.8922636 ] } },
{ "type": "Feature", "properties": { "Station": "Mirfield", "Points": 200.0, "full_name": "Mirfield Rail station, UK" }, "geometry": { "type": "Point", "coordinates": [ -1.6930618, 53.6715127 ] } },
{ "type": "Feature", "properties": { "Station": "Moorthorpe", "Points": 200.0, "full_name": "Moorthorpe Rail station, UK" }, "geometry": { "type": "Point", "coordinates": [ -1.30495, 53.59501 ] } },
{ "type": "Feature", "properties": { "Station": "Morley", "Points": 200.0, "full_name": "Morley Rail station, UK" }, "geometry": { "type": "Point", "coordinates": [ -1.5915259, 53.7498019 ] } },
{ "type": "Feature", "properties": { "Station": "Marsden", "Points": 1000.0, "full_name": "Marsden Rail station, UK" }, "geometry": { "type": "Point", "coordinates": [ -1.93075, 53.6032 ] } },
{ "type": "Feature", "properties": { "Station": "Mytholmroyd", "Points": 400.0, "full_name": "Mytholmroyd Rail station, UK" }, "geometry": { "type": "Point", "coordinates": [ -1.9820092, 53.7290518 ] } },
{ "type": "Feature", "properties": { "Station": "Normanton", "Points": 200.0, "full_name": "Normanton Rail station, UK" }, "geometry": { "type": "Point", "coordinates": [ -1.4231895, 53.700711 ] } },
{ "type": "Feature", "properties": { "Station": "New Pudsey", "Points": 200.0, "full_name": "New Pudsey Rail station, UK" }, "geometry": { "type": "Point", "coordinates": [ -1.6808855, 53.8044091 ] } },
{ "type": "Feature", "properties": { "Station": "Outwood", "Points": 200.0, "full_name": "Outwood Rail station, UK" }, "geometry": { "type": "Point", "coordinates": [ -1.5104986, 53.715419399999988 ] } },
{ "type": "Feature", "properties": { "Station": "Pontefract Baghill", "Points": 2000.0, "full_name": "Pontefract Baghill Rail station, UK" }, "geometry": { "type": "Point", "coordinates": [ -1.3035585, 53.6918508 ] } },
{ "type": "Feature", "properties": { "Station": "Pontefract Monkhill", "Points": 200.0, "full_name": "Pontefract Monkhill Rail station, UK" }, "geometry": { "type": "Point", "coordinates": [ -1.3041053, 53.6987548 ] } },
{ "type": "Feature", "properties": { "Station": "Pontefract Tanshelf", "Points": 400.0, "full_name": "Pontefract Tanshelf Rail station, UK" }, "geometry": { "type": "Point", "coordinates": [ -1.3041053, 53.6987548 ] } },
{ "type": "Feature", "properties": { "Station": "Ravensthorpe", "Points": 200.0, "full_name": "Ravensthorpe Rail station, UK" }, "geometry": { "type": "Point", "coordinates": [ -1.6558056, 53.675622 ] } },
{ "type": "Feature", "properties": { "Station": "Sandal & Agbrigg", "Points": 200.0, "full_name": "Sandal & Agbrigg Rail station, wakefield, UK" }, "geometry": { "type": "Point", "coordinates": [ -1.4797478, 53.661725 ] } },
{ "type": "Feature", "properties": { "Station": "Saltaire", "Points": 200.0, "full_name": "Saltaire Rail station, UK" }, "geometry": { "type": "Point", "coordinates": [ -1.7903891, 53.838563 ] } },
{ "type": "Feature", "properties": { "Station": "South Elmsall", "Points": 400.0, "full_name": "South Elmsall Rail station, UK" }, "geometry": { "type": "Point", "coordinates": [ -1.2855479, 53.5948512 ] } },
{ "type": "Feature", "properties": { "Station": "Shipley", "Points": 200.0, "full_name": "Shipley Rail station, UK" }, "geometry": { "type": "Point", "coordinates": [ -1.7736529, 53.8333294 ] } },
{ "type": "Feature", "properties": { "Station": "Slaithwaite", "Points": 400.0, "full_name": "Slaithwaite Rail station, UK" }, "geometry": { "type": "Point", "coordinates": [ -1.8815035, 53.6237791 ] } },
{ "type": "Feature", "properties": { "Station": "Shepley", "Points": 400.0, "full_name": "Shepley Rail station, UK" }, "geometry": { "type": "Point", "coordinates": [ -1.7044417, 53.5886137 ] } },
{ "type": "Feature", "properties": { "Station": "Steeton & Silsden", "Points": 200.0, "full_name": "Steeton & Silsden Rail station, UK" }, "geometry": { "type": "Point", "coordinates": [ -1.9482641, 53.895713699999988 ] } },
{ "type": "Feature", "properties": { "Station": "Streethouse", "Points": 200.0, "full_name": "Streethouse Rail station, UK" }, "geometry": { "type": "Point", "coordinates": [ -1.3996854, 53.676125799999987 ] } },
{ "type": "Feature", "properties": { "Station": "Stocksmoor", "Points": 400.0, "full_name": "Stocksmoor Rail station, UK" }, "geometry": { "type": "Point", "coordinates": [ -1.7232725, 53.594222 ] } },
{ "type": "Feature", "properties": { "Station": "Sowerby Bridge", "Points": 400.0, "full_name": "Sowerby Bridge Rail station, UK" }, "geometry": { "type": "Point", "coordinates": [ -1.9069796, 53.7078374 ] } },
{ "type": "Feature", "properties": { "Station": "Todmorden", "Points": 400.0, "full_name": "Todmorden Rail station, UK" }, "geometry": { "type": "Point", "coordinates": [ -2.0993561, 53.713873799999988 ] } },
{ "type": "Feature", "properties": { "Station": "Walsden", "Points": 1000.0, "full_name": "Walsden Rail station, UK" }, "geometry": { "type": "Point", "coordinates": [ -2.1046022, 53.696436299999988 ] } },
{ "type": "Feature", "properties": { "Station": "Woodlesford", "Points": 200.0, "full_name": "Woodlesford Rail station, UK" }, "geometry": { "type": "Point", "coordinates": [ -1.4437117, 53.757037399999987 ] } },
{ "type": "Feature", "properties": { "Station": "Wakefield Kirkgate", "Points": 200.0, "full_name": "Wakefield Kirkgate Rail station, UK" }, "geometry": { "type": "Point", "coordinates": [ -1.489432, 53.6786849 ] } },
{ "type": "Feature", "properties": { "Station": "Wakefield Westgate", "Points": 200.0, "full_name": "Wakefield Westgate Rail station, UK" }, "geometry": { "type": "Point", "coordinates": [ -1.5057789, 53.6829192 ] } }
]
}
